{
  "RECORDS": [
    {
      "lat": "-1.6863870927",
      "lon": "37.1894023766",
      "alt": "4.9899990845",
      "Surveillance": "xxxxxxxxxxxxxxxx",
      "CameraName": "WingA_Path",
      "CameraID": "00402032009963560101#f4b00b238376482bb719fc54b49add42",
      "AndOnlineStatus": "xxxxxxxxxxxx"
    },
    {
      "lat": "-1.6862271791",
      "lon": "37.185136923",
      "alt": "3.7152392578",
      "Surveillance": "xxxxxxxxxxxxxxxx",
      "CameraName": "WingA_ServerRoom",
      "CameraID": "00402032000906370101#f4b00b238376482bb719fc54b49add42",
      "AndOnlineStatus": "xxxxxxxxxxxx"
    },
    {
      "lat": "-1.6859977393",
      "lon": "37.1868778987",
      "alt": "4.9899990845",
      "Surveillance": "xxxxxxxxxxxxxxxx",
      "CameraName": "Grd Fire Assembly Point 1",
      "CameraID": "00402032001999480101#f4b00b238376482bb719fc54b49add42",
      "AndOnlineStatus": "xxxxxxxxxxxx"
    },
    {
      "lat": "-1.685155212",
      "lon": "37.1861243441",
      "alt": "4.9899990845",
      "Surveillance": "xxxxxxxxxxxxxxxx",
      "CameraName": "WingB_OpenSpace",
      "CameraID": "00402032002037570101#f4b00b238376482bb719fc54b49add42",
      "AndOnlineStatus": "xxxxxxxxxxxx"
    },
    {
      "lat": "-1.6848682317",
      "lon": "37.1875816157",
      "alt": "4.9899990845",
      "Surveillance": "xxxxxxxxxxxxxxxx",
      "CameraName": "WingA_Boardroom",
      "CameraID": "00402032009720040101#f4b00b238376482bb719fc54b49add42",
      "AndOnlineStatus": "xxxxxxxxxxxx"
    }
  ]
}